[
    {
        "id": "0",
        "name": "Wilfrid Laurier University",
        "lat": 43.4739,
        "lng": -80.5274
    },
    {
        "id": "1",
        "name": "197 Albert Street",
        "lat": 43.472989,
        "lng": -80.531436
    },
    {
        "id": "2",
        "name": "150 University Ave W Unit 1a",
        "lat": 43.458290,
        "lng": -80.539580
    },
    {
        "id": "3",
        "name": "181 Lester St",
        "lat": 43.474270,
        "lng": -80.535050
    },
    {
        "id": "4",
        "name": " 56 King St N",
        "lat": 43.467030,
        "lng": -80.522491
    }
]